name,latitude,longitude
Gudang_Ngamprah,-6.8399,107.4970
Gerai_Padalarang,-6.8385,107.4897
Gerai_Batujajar,-6.8730,107.5225
Gerai_Cikalongwetan,-6.7274,107.5116
Gerai_Cipatat,-6.7284,107.4436
Gerai_Parongpong,-6.8181,107.5852
Gerai_Lembang,-6.8113,107.6177
Gerai_Cisarua,-6.7735,107.6386
Gerai_Cililin,-6.9836,107.4033
Gerai_Sindangkerta,-6.9722,107.3714
Gerai_Cipongkor,-6.9944,107.3502
Gerai_Gununghalu,-7.0863,107.3132